{
  "type": "FeatureCollection",
  "features": [
    {
      "type": "Feature",
      "properties": {
        "marker-color": "#7e7e7e",
        "marker-size": "medium",
        "marker-symbol": "",
        "Traveler": "Vania Komegi",
        "Place": "Honolulu, HI",
        "Month": "November"
      },
      "geometry": {
        "type": "Point",
        "coordinates": [
          -157.85018920898438,
          21.307927032379645
        ]
      }
    },
    {
      "type": "Feature",
      "properties": {
        "marker-color": "#7e7e7e",
        "marker-size": "medium",
        "marker-symbol": "",
        "Traveler": "Vania Komegi",
        "Place": "San Antonio, TX",
        "Month": "September"
      },
      "geometry": {
        "type": "Point",
        "coordinates": [
          -98.4979248046875,
          29.44438130948883
        ]
      }
    },
    {
      "type": "Feature",
      "properties": {
        "marker-color": "#7e7e7e",
        "marker-size": "medium",
        "marker-symbol": "",
        "Traveler": "Vania Komegi",
        "Place": "Salem, MA",
        "Month": "October"
      },
      "geometry": {
        "type": "Point",
        "coordinates": [
          -70.89717864990234,
          42.51956083754518
        ]
      }
    },
    {
      "type": "Feature",
      "properties": {
        "marker-color": "#7e7e7e",
        "marker-size": "medium",
        "marker-symbol": "",
        "Traveler": "Vania Komegi",
        "Place": "Glacier, WA",
        "Month": "October"
      },
      "geometry": {
        "type": "Point",
        "coordinates": [
          -121.91562652587889,
          48.90219201257454
        ]
      }
    },
    {
      "type": "Feature",
      "properties": {
        "marker-color": "#7e7e7e",
        "marker-size": "medium",
        "marker-symbol": "",
        "Traveler": "Vania Komegi",
        "Place": "Tucson, AZ",
        "Month": "January"
      },
      "geometry": {
        "type": "Point",
        "coordinates": [
          -110.9344482421875,
          32.22674287041067
        ]
      }
    }
  ]
}